{"type":"Topology","objects":{"cities":{"type":"GeometryCollection","bbox":[-122.67620709999994,29.424121900000046,-71.05977319999994,47.606209500000034],
  "geometries":[
    {"type":"Point","properties":{"NAME":"Boston","STATE":"MA","LATITUDE":42.3584308,"LONGITUDE":-71.0597732,"POP_2010":617594},"coordinates":[999999,711376]},
    {"type":"Point","properties":{"NAME":"Chicago","STATE":"IL","LATITUDE":41.850033,"LONGITUDE":-87.6500523,"POP_2010":2695598},"coordinates":[678585,683414]},
    {"type":"Point","properties":{"NAME":"Philadelphia","STATE":"PA","LATITUDE":39.952335,"LONGITUDE":-75.163789,"POP_2010":1526006},"coordinates":[920489,579043]},
    {"type":"Point","properties":{"NAME":"Baltimore","STATE":"MD","LATITUDE":39.2903848,"LONGITUDE":-76.6121893,"POP_2010":620961},"coordinates":[892428,542636]},
    {"type":"Point","properties":{"NAME":"Milwaukee","STATE":"WI","LATITUDE":43.0389025,"LONGITUDE":-87.9064736,"POP_2010":594833},"coordinates":[673617,748801]},
    {"type":"Point","properties":{"NAME":"Columbus","STATE":"OH","LATITUDE":39.9611755,"LONGITUDE":-82.9987942,"POP_2010":787033},"coordinates":[768697,579529]},
    {"type":"Point","properties":{"NAME":"Detroit","STATE":"MI","LATITUDE":42.331427,"LONGITUDE":-83.0457538,"POP_2010":713777},"coordinates":[767787,709891]},
    {"type":"Point","properties":{"NAME":"Washington","STATE":"DC","LATITUDE":38.8951118,"LONGITUDE":-77.0363658,"POP_2010":601723},"coordinates":[884211,520896]},
    {"type":"Point","properties":{"NAME":"New York","STATE":"NY","LATITUDE":40.7614927583,"LONGITUDE":-73.9814311179,"POP_2010":8175133},"coordinates":[943396,623546]},
    {"type":"Point","properties":{"NAME":"Charlotte","STATE":"NC","LATITUDE":35.2270869,"LONGITUDE":-80.8431268,"POP_2010":731424},"coordinates":[810460,319158]},
    {"type":"Point","properties":{"NAME":"Jacksonville","STATE":"FL","LATITUDE":30.3321838,"LONGITUDE":-81.655651,"POP_2010":821784},"coordinates":[794718,49943]},
    {"type":"Point","properties":{"NAME":"Memphis","STATE":"TN","LATITUDE":35.1495343,"LONGITUDE":-90.0489801,"POP_2010":646889},"coordinates":[632109,314893]},
    {"type":"Point","properties":{"NAME":"Denver","STATE":"CO","LATITUDE":39.7391536,"LONGITUDE":-104.9847034,"POP_2010":600158},"coordinates":[342749,567318]},
    {"type":"Point","properties":{"NAME":"Albuquerque","STATE":"NM","LATITUDE":35.0844909,"LONGITUDE":-106.6511367,"POP_2010":545852},"coordinates":[310464,311315]},
    {"type":"Point","properties":{"NAME":"Dallas","STATE":"TX","LATITUDE":32.7830556,"LONGITUDE":-96.8066667,"POP_2010":1197816},"coordinates":[501188,184738]},
    {"type":"Point","properties":{"NAME":"Portland","STATE":"OR","LATITUDE":45.5234515,"LONGITUDE":-122.6762071,"POP_2010":583776},"coordinates":[0,885449]},
    {"type":"Point","properties":{"NAME":"Las Vegas","STATE":"NV","LATITUDE":36.1749705,"LONGITUDE":-115.137223,"POP_2010":583756},"coordinates":[146058,371291]},
    {"type":"Point","properties":{"NAME":"Oklahoma City","STATE":"OK","LATITUDE":35.4715076006,"LONGITUDE":-97.5402106885,"POP_2010":579999},"coordinates":[486976,332601]},
    {"type":"Point","properties":{"NAME":"Los Angeles","STATE":"CA","LATITUDE":34.0522342,"LONGITUDE":-118.2436849,"POP_2010":3792621},"coordinates":[85874,254542]},
    {"type":"Point","properties":{"NAME":"Phoenix","STATE":"AZ","LATITUDE":33.4483771,"LONGITUDE":-112.0740373,"POP_2010":1445632},"coordinates":[205403,221331]},
    {"type":"Point","properties":{"NAME":"Houston","STATE":"TX","LATITUDE":29.7632836,"LONGITUDE":-95.3632715,"POP_2010":2099451},"coordinates":[529151,18654]},
    {"type":"Point","properties":{"NAME":"Seattle","STATE":"WA","LATITUDE":47.6062095,"LONGITUDE":-122.3320708,"POP_2010":608660},"coordinates":[6667,999999]},
    {"type":"Point","properties":{"NAME":"San Francisco","STATE":"CA","LATITUDE":37.7749295,"LONGITUDE":-122.4194155,"POP_2010":805235},"coordinates":[4975,459287]},
    {"type":"Point","properties":{"NAME":"San Diego","STATE":"CA","LATITUDE":32.7153292,"LONGITUDE":-117.1572551,"POP_2010":1307402},"coordinates":[106922,181014]},
    {"type":"Point","properties":{"NAME":"Tucson","STATE":"AZ","LATITUDE":32.2217429,"LONGITUDE":-110.926479,"POP_2010":520116},"coordinates":[227635,153867]},
    {"type":"Point","properties":{"NAME":"San Antonio","STATE":"TX","LATITUDE":29.4241219,"LONGITUDE":-98.4936282,"POP_2010":1327407},"coordinates":[468505,0]},
    {"type":"Point","properties":{"NAME":"Indianapolis","STATE":"IN","LATITUDE":39.7683765,"LONGITUDE":-86.1580423,"POP_2010":820445},"coordinates":[707490,568925]},
    {"type":"Point","properties":{"NAME":"Louisville","STATE":"KY","LATITUDE":38.2542376,"LONGITUDE":-85.759407,"POP_2010":597337},"coordinates":[715213,485649]},
    {"type":"Point","properties":{"NAME":"Nashville","STATE":"TN","LATITUDE":36.1658899,"LONGITUDE":-86.7844432,"POP_2010":601222},"coordinates":[695355,370791]}
    ]}},"arcs":[],"transform":{"scale":[0.000051616485516485524,0.00001818210578210577],"translate":[-122.67620709999994,29.424121900000046]}}
